{
  "type": "FeatureCollection",
  "features": [
    {
      "type": "Feature",
      "properties": {
        "title": "amurg in pasul Tihuta.jpg",
        "taken_at": null,
        "source": "filename",
        "original_page": null,
        "thumb": "thumbs/t-3c5808e2a0baabf42932d235df799256.jpg",
        "thumb_external": null,
        "full_external": null
      },
      "geometry": {
        "type": "Point",
        "coordinates": [
          24.8058,
          47.3147
        ]
      }
    },
    {
      "type": "Feature",
      "properties": {
        "title": "Apus pe Dunare la Bazias.jpg",
        "taken_at": null,
        "source": "filename",
        "original_page": null,
        "thumb": "thumbs/t-6e60ecee59b86c6f756cd3c7cf7e250f.jpg",
        "thumb_external": null,
        "full_external": null
      },
      "geometry": {
        "type": "Point",
        "coordinates": [
          21.43,
          44.784
        ]
      }
    },
    {
      "type": "Feature",
      "properties": {
        "title": "ateneu cupola.jpg",
        "taken_at": null,
        "source": "filename",
        "original_page": null,
        "thumb": "thumbs/t-bb23805c97d749abffd575319c3af966.jpg",
        "thumb_external": null,
        "full_external": null
      },
      "geometry": {
        "type": "Point",
        "coordinates": [
          26.098,
          44.4412
        ]
      }
    },
    {
      "type": "Feature",
      "properties": {
        "title": "Ateneu interior.jpg",
        "taken_at": null,
        "source": "filename",
        "original_page": null,
        "thumb": "thumbs/t-b6cd2c4b1ed0a7ea4a7abc48ef47cc20.jpg",
        "thumb_external": null,
        "full_external": null
      },
      "geometry": {
        "type": "Point",
        "coordinates": [
          26.098,
          44.4412
        ]
      }
    },
    {
      "type": "Feature",
      "properties": {
        "title": "Barsana sat.jpg",
        "taken_at": null,
        "source": "filename",
        "original_page": null,
        "thumb": "thumbs/t-dea1e8e25c444000ec9e4f436c9d08dd.jpg",
        "thumb_external": null,
        "full_external": null
      },
      "geometry": {
        "type": "Point",
        "coordinates": [
          24.0425,
          47.7367
        ]
      }
    },
    {
      "type": "Feature",
      "properties": {
        "title": "Bethlen Cris Castel.jpg",
        "taken_at": null,
        "source": "filename",
        "original_page": null,
        "thumb": "thumbs/t-23bd411e4b63a53f700aff11109e274c.jpg",
        "thumb_external": null,
        "full_external": null
      },
      "geometry": {
        "type": "Point",
        "coordinates": [
          24.671,
          46.1932
        ]
      }
    },
    {
      "type": "Feature",
      "properties": {
        "title": "Bethlen Cris.jpg",
        "taken_at": null,
        "source": "filename",
        "original_page": null,
        "thumb": "thumbs/t-89c0edf6d59c1421fa46b58da5422e37.jpg",
        "thumb_external": null,
        "full_external": null
      },
      "geometry": {
        "type": "Point",
        "coordinates": [
          24.671,
          46.1932
        ]
      }
    },
    {
      "type": "Feature",
      "properties": {
        "title": "Bistrita 01.jpg",
        "taken_at": null,
        "source": "filename",
        "original_page": null,
        "thumb": "thumbs/t-da0d67ea2bfd234e5aa4d15b018498e9.jpg",
        "thumb_external": null,
        "full_external": null
      },
      "geometry": {
        "type": "Point",
        "coordinates": [
          24.5,
          47.133
        ]
      }
    },
    {
      "type": "Feature",
      "properties": {
        "title": "BNR interior.jpg",
        "taken_at": null,
        "source": "filename",
        "original_page": null,
        "thumb": "thumbs/t-2651730fd34eb9281bb8d3937c118161.jpg",
        "thumb_external": null,
        "full_external": null
      },
      "geometry": {
        "type": "Point",
        "coordinates": [
          26.0986,
          44.4305
        ]
      }
    },
    {
      "type": "Feature",
      "properties": {
        "title": "Brateiu satul caldararilor.jpg",
        "taken_at": null,
        "source": "filename",
        "original_page": null,
        "thumb": "thumbs/t-61b92ff9f068d97921a4c313797fb120.jpg",
        "thumb_external": null,
        "full_external": null
      },
      "geometry": {
        "type": "Point",
        "coordinates": [
          24.3826,
          46.1491
        ]
      }
    },
    {
      "type": "Feature",
      "properties": {
        "title": "Breb horinca Maramures.jpg",
        "taken_at": null,
        "source": "filename",
        "original_page": null,
        "thumb": "thumbs/t-9b07c3f406aa43cc61c285c44905e50a.jpg",
        "thumb_external": null,
        "full_external": null
      },
      "geometry": {
        "type": "Point",
        "coordinates": [
          23.9049,
          47.7485
        ]
      }
    },
    {
      "type": "Feature",
      "properties": {
        "title": "Breb in Maramures casa veche.jpg",
        "taken_at": null,
        "source": "filename",
        "original_page": null,
        "thumb": "thumbs/t-211cfb81a68810112b83d3f19b63dc84.jpg",
        "thumb_external": null,
        "full_external": null
      },
      "geometry": {
        "type": "Point",
        "coordinates": [
          23.9049,
          47.7485
        ]
      }
    },
    {
      "type": "Feature",
      "properties": {
        "title": "Breb in Maramures interior.jpg",
        "taken_at": null,
        "source": "filename",
        "original_page": null,
        "thumb": "thumbs/t-907669c8b097f786fb8de1447c8bfcb9.jpg",
        "thumb_external": null,
        "full_external": null
      },
      "geometry": {
        "type": "Point",
        "coordinates": [
          23.9049,
          47.7485
        ]
      }
    },
    {
      "type": "Feature",
      "properties": {
        "title": "Breb Maramures ceterasi.jpg",
        "taken_at": null,
        "source": "filename",
        "original_page": null,
        "thumb": "thumbs/t-99b952f3a2c7376fa7854c24761f16ef.jpg",
        "thumb_external": null,
        "full_external": null
      },
      "geometry": {
        "type": "Point",
        "coordinates": [
          23.9049,
          47.7485
        ]
      }
    },
    {
      "type": "Feature",
      "properties": {
        "title": "Breb Maramures.jpg",
        "taken_at": null,
        "source": "filename",
        "original_page": null,
        "thumb": "thumbs/t-b55fc392a496d27b1c72322cb3c84a61.jpg",
        "thumb_external": null,
        "full_external": null
      },
      "geometry": {
        "type": "Point",
        "coordinates": [
          23.9049,
          47.7485
        ]
      }
    },
    {
      "type": "Feature",
      "properties": {
        "title": "Breb Maramures poartaJPG.jpg",
        "taken_at": null,
        "source": "filename",
        "original_page": null,
        "thumb": "thumbs/t-9968d32cf7570e5251d26bd18015b7ee.jpg",
        "thumb_external": null,
        "full_external": null
      },
      "geometry": {
        "type": "Point",
        "coordinates": [
          23.9049,
          47.7485
        ]
      }
    },
    {
      "type": "Feature",
      "properties": {
        "title": "Breb MM casÄƒ.jpg",
        "taken_at": null,
        "source": "filename",
        "original_page": null,
        "thumb": "thumbs/t-164af52849b13241f8975cf8a343f540.jpg",
        "thumb_external": null,
        "full_external": null
      },
      "geometry": {
        "type": "Point",
        "coordinates": [
          23.9049,
          47.7485
        ]
      }
    },
    {
      "type": "Feature",
      "properties": {
        "title": "Breb MM clopuri.jpg",
        "taken_at": null,
        "source": "filename",
        "original_page": null,
        "thumb": "thumbs/t-0af14a2a0ba56015bbf69356eda07e19.jpg",
        "thumb_external": null,
        "full_external": null
      },
      "geometry": {
        "type": "Point",
        "coordinates": [
          23.9049,
          47.7485
        ]
      }
    },
    {
      "type": "Feature",
      "properties": {
        "title": "Breb MM sculptor.jpg",
        "taken_at": null,
        "source": "filename",
        "original_page": null,
        "thumb": "thumbs/t-b3a7c54a76ca185a9a415486a34189c6.jpg",
        "thumb_external": null,
        "full_external": null
      },
      "geometry": {
        "type": "Point",
        "coordinates": [
          23.9049,
          47.7485
        ]
      }
    },
    {
      "type": "Feature",
      "properties": {
        "title": "Cascada Bigar 02.jpg",
        "taken_at": null,
        "source": "filename",
        "original_page": null,
        "thumb": "thumbs/t-3729c1adc56f9c3c2cc6ce900eec5b85.jpg",
        "thumb_external": null,
        "full_external": null
      },
      "geometry": {
        "type": "Point",
        "coordinates": [
          22.3514,
          45.0039
        ]
      }
    },
    {
      "type": "Feature",
      "properties": {
        "title": "Castelul Lazar din Lazarea 01.jpg",
        "taken_at": null,
        "source": "filename",
        "original_page": null,
        "thumb": "thumbs/t-e579ee71d30f1c111d2bb6a657d28a23.jpg",
        "thumb_external": null,
        "full_external": null
      },
      "geometry": {
        "type": "Point",
        "coordinates": [
          25.5169,
          46.777
        ]
      }
    },
    {
      "type": "Feature",
      "properties": {
        "title": "Cheile Bicazului 02.jpg",
        "taken_at": null,
        "source": "filename",
        "original_page": null,
        "thumb": "thumbs/t-fa65c51f3c46cdef5c178fd13478a2ac.jpg",
        "thumb_external": null,
        "full_external": null
      },
      "geometry": {
        "type": "Point",
        "coordinates": [
          25.8241,
          46.8121
        ]
      }
    },
    {
      "type": "Feature",
      "properties": {
        "title": "Castelul Lazar din Lazarea 02.jpg",
        "taken_at": null,
        "source": "filename",
        "original_page": null,
        "thumb": "thumbs/t-5b7bbc7261c00799e0587cdb3a8e9be6.jpg",
        "thumb_external": null,
        "full_external": null
      },
      "geometry": {
        "type": "Point",
        "coordinates": [
          25.5169,
          46.777
        ]
      }
    },
    {
      "type": "Feature",
      "properties": {
        "title": "Cheile Bicazului 03.jpg",
        "taken_at": null,
        "source": "filename",
        "original_page": null,
        "thumb": "thumbs/t-d95774058a206826c494f4181a4f0122.jpg",
        "thumb_external": null,
        "full_external": null
      },
      "geometry": {
        "type": "Point",
        "coordinates": [
          25.8241,
          46.8121
        ]
      }
    },
    {
      "type": "Feature",
      "properties": {
        "title": "Dupus.jpg",
        "taken_at": null,
        "source": "filename",
        "original_page": null,
        "thumb": "thumbs/t-2c9166cb589458101f2d3abf24729c3f.jpg",
        "thumb_external": null,
        "full_external": null
      },
      "geometry": {
        "type": "Point",
        "coordinates": [
          24.2164,
          46.2178
        ]
      }
    },
    {
      "type": "Feature",
      "properties": {
        "title": "Enisala Bujori.jpg",
        "taken_at": null,
        "source": "filename",
        "original_page": null,
        "thumb": "thumbs/t-92a13aa63c516f4bcc09ed45663b3f2e.jpg",
        "thumb_external": null,
        "full_external": null
      },
      "geometry": {
        "type": "Point",
        "coordinates": [
          28.8382,
          44.8864
        ]
      }
    },
    {
      "type": "Feature",
      "properties": {
        "title": "Feldioara.jpg",
        "taken_at": null,
        "source": "filename",
        "original_page": null,
        "thumb": "thumbs/t-95061f284c4603566bb52b57694875d2.jpg",
        "thumb_external": null,
        "full_external": null
      },
      "geometry": {
        "type": "Point",
        "coordinates": [
          25.5862,
          45.8282
        ]
      }
    },
    {
      "type": "Feature",
      "properties": {
        "title": "Lacul Bicaz 01.jpg",
        "taken_at": null,
        "source": "filename",
        "original_page": null,
        "thumb": "thumbs/t-d54c6a09360a0d577ad3297cb688e746.jpg",
        "thumb_external": null,
        "full_external": null
      },
      "geometry": {
        "type": "Point",
        "coordinates": [
          26.0901,
          46.9133
        ]
      }
    },
    {
      "type": "Feature",
      "properties": {
        "title": "Lacul Bicaz 02.jpg",
        "taken_at": null,
        "source": "filename",
        "original_page": null,
        "thumb": "thumbs/t-94c628ee0eeac0a11371342fa467c7d2.jpg",
        "thumb_external": null,
        "full_external": null
      },
      "geometry": {
        "type": "Point",
        "coordinates": [
          26.0901,
          46.9133
        ]
      }
    },
    {
      "type": "Feature",
      "properties": {
        "title": "Ogra de Mures Castelul Haller.jpg",
        "taken_at": null,
        "source": "filename",
        "original_page": null,
        "thumb": "thumbs/t-1850206219b0b13b56d7acf2f1c51341.jpg",
        "thumb_external": null,
        "full_external": null
      },
      "geometry": {
        "type": "Point",
        "coordinates": [
          24.289,
          46.464
        ]
      }
    },
    {
      "type": "Feature",
      "properties": {
        "title": "pictura bisericii de lemn Poienile Izei.jpg",
        "taken_at": null,
        "source": "filename",
        "original_page": null,
        "thumb": "thumbs/t-d632caf071a0fba80c7ed7ed2f9456ee.jpg",
        "thumb_external": null,
        "full_external": null
      },
      "geometry": {
        "type": "Point",
        "coordinates": [
          24.116,
          47.694
        ]
      }
    },
    {
      "type": "Feature",
      "properties": {
        "title": "Oravita Anina 01.jpg",
        "taken_at": null,
        "source": "filename",
        "original_page": null,
        "thumb": "thumbs/t-09f5b8d003d0bbf4f0c8c885b97bcb72.jpg",
        "thumb_external": null,
        "full_external": null
      },
      "geometry": {
        "type": "Point",
        "coordinates": [
          21.6911,
          45.0391
        ]
      }
    },
    {
      "type": "Feature",
      "properties": {
        "title": "Praid Casa Fluturilor Exotici 02.jpg",
        "taken_at": null,
        "source": "filename",
        "original_page": null,
        "thumb": "thumbs/t-a2f4618ea6c443ce1f922287d964c917.jpg",
        "thumb_external": null,
        "full_external": null
      },
      "geometry": {
        "type": "Point",
        "coordinates": [
          25.1358,
          46.5534
        ]
      }
    },
    {
      "type": "Feature",
      "properties": {
        "title": "Punte peste Nera la Sasca.jpg",
        "taken_at": null,
        "source": "filename",
        "original_page": null,
        "thumb": "thumbs/t-4e03a8fcca4360fe674c90033dc7f62e.jpg",
        "thumb_external": null,
        "full_external": null
      },
      "geometry": {
        "type": "Point",
        "coordinates": [
          21.7577,
          44.8803
        ]
      }
    },
    {
      "type": "Feature",
      "properties": {
        "title": "Sapanta.jpg",
        "taken_at": null,
        "source": "filename",
        "original_page": null,
        "thumb": "thumbs/t-4f99fedc180597f2ed362b11113d467b.jpg",
        "thumb_external": null,
        "full_external": null
      },
      "geometry": {
        "type": "Point",
        "coordinates": [
          23.6932,
          47.9682
        ]
      }
    },
    {
      "type": "Feature",
      "properties": {
        "title": "Sucevita fatada sud Scara Virtutilor.jpg",
        "taken_at": null,
        "source": "filename",
        "original_page": null,
        "thumb": "thumbs/t-c00e481ee46926aa982ef9fff21741ea.jpg",
        "thumb_external": null,
        "full_external": null
      },
      "geometry": {
        "type": "Point",
        "coordinates": [
          25.7206,
          47.7814
        ]
      }
    },
    {
      "type": "Feature",
      "properties": {
        "title": "Sucevita.jpg",
        "taken_at": null,
        "source": "filename",
        "original_page": null,
        "thumb": "thumbs/t-11e0ea9513729c15181095b7d616f154.jpg",
        "thumb_external": null,
        "full_external": null
      },
      "geometry": {
        "type": "Point",
        "coordinates": [
          25.7206,
          47.7814
        ]
      }
    },
    {
      "type": "Feature",
      "properties": {
        "title": "Viscri 163 Casa Regelui Charles.jpg",
        "taken_at": null,
        "source": "filename",
        "original_page": null,
        "thumb": "thumbs/t-4efb053d6a014a721066732cd006ca3d.jpg",
        "thumb_external": null,
        "full_external": null
      },
      "geometry": {
        "type": "Point",
        "coordinates": [
          25.0918,
          46.0558
        ]
      }
    },
    {
      "type": "Feature",
      "properties": {
        "title": "Vodita Mehedinti.jpg",
        "taken_at": null,
        "source": "filename",
        "original_page": null,
        "thumb": "thumbs/t-bb6705c1880bbec5e9ff27fc559404f3.jpg",
        "thumb_external": null,
        "full_external": null
      },
      "geometry": {
        "type": "Point",
        "coordinates": [
          22.416,
          44.673
        ]
      }
    },
    {
      "type": "Feature",
      "properties": {
        "title": "Zimbri Hateg.jpg",
        "taken_at": null,
        "source": "filename",
        "original_page": null,
        "thumb": "thumbs/t-a90d458f6ea5b31f75878406013bb2a7.jpg",
        "thumb_external": null,
        "full_external": null
      },
      "geometry": {
        "type": "Point",
        "coordinates": [
          22.9538,
          45.6117
        ]
      }
    },
    {
      "type": "Feature",
      "properties": {
        "title": "Zimbri Vanatori Neamt.jpg",
        "taken_at": null,
        "source": "filename",
        "original_page": null,
        "thumb": "thumbs/t-9a1682876b0ad82e3cd9b6f225ed76c8.jpg",
        "thumb_external": null,
        "full_external": null
      },
      "geometry": {
        "type": "Point",
        "coordinates": [
          26.234,
          47.219
        ]
      }
    },
    {
      "type": "Feature",
      "properties": {
        "title": "capidava (1) 20230702_150952.jpg",
        "taken_at": null,
        "source": "filename",
        "original_page": null,
        "thumb": "thumbs/t-957f7835a467c0369dc587398553d955.jpg",
        "thumb_external": null,
        "full_external": null
      },
      "geometry": {
        "type": "Point",
        "coordinates": [
          28.08,
          44.51
        ]
      }
    },
    {
      "type": "Feature",
      "properties": {
        "title": "capidava (3) 20230702_150952.jpg",
        "taken_at": null,
        "source": "filename",
        "original_page": null,
        "thumb": "thumbs/t-72724cc7b35869a70bc7547e8e4c1a07.jpg",
        "thumb_external": null,
        "full_external": null
      },
      "geometry": {
        "type": "Point",
        "coordinates": [
          28.08,
          44.51
        ]
      }
    },
    {
      "type": "Feature",
      "properties": {
        "title": "capidava (2) 20230702_150952.jpg",
        "taken_at": null,
        "source": "filename",
        "original_page": null,
        "thumb": "thumbs/t-45082adbf0e6502b17c7663ad1f97f03.jpg",
        "thumb_external": null,
        "full_external": null
      },
      "geometry": {
        "type": "Point",
        "coordinates": [
          28.08,
          44.51
        ]
      }
    },
    {
      "type": "Feature",
      "properties": {
        "title": "capidava (4) 20230702_150952.jpg",
        "taken_at": null,
        "source": "filename",
        "original_page": null,
        "thumb": "thumbs/t-151b4d0b8512ecb6aad4cabea7adbacf.jpg",
        "thumb_external": null,
        "full_external": null
      },
      "geometry": {
        "type": "Point",
        "coordinates": [
          28.08,
          44.51
        ]
      }
    },
    {
      "type": "Feature",
      "properties": {
        "title": "capidava (5) 20230702_150952.jpg",
        "taken_at": null,
        "source": "filename",
        "original_page": null,
        "thumb": "thumbs/t-fe895631c9e82a4775a15b98264ecac1.jpg",
        "thumb_external": null,
        "full_external": null
      },
      "geometry": {
        "type": "Point",
        "coordinates": [
          28.08,
          44.51
        ]
      }
    },
    {
      "type": "Feature",
      "properties": {
        "title": "cernavoda (1) 20230702_110544.jpg",
        "taken_at": null,
        "source": "filename",
        "original_page": null,
        "thumb": "thumbs/t-9c4a40a7209604fa0c201b87782e5b50.jpg",
        "thumb_external": null,
        "full_external": null
      },
      "geometry": {
        "type": "Point",
        "coordinates": [
          28.0333,
          44.3333
        ]
      }
    },
    {
      "type": "Feature",
      "properties": {
        "title": "cernavoda (2) 20230702_110544.jpg",
        "taken_at": null,
        "source": "filename",
        "original_page": null,
        "thumb": "thumbs/t-d5224f1cc3d8c370a75cda11290206af.jpg",
        "thumb_external": null,
        "full_external": null
      },
      "geometry": {
        "type": "Point",
        "coordinates": [
          28.0333,
          44.3333
        ]
      }
    },
    {
      "type": "Feature",
      "properties": {
        "title": "cernavoda (3) 20230702_110544.jpg",
        "taken_at": null,
        "source": "filename",
        "original_page": null,
        "thumb": "thumbs/t-fc1672b1c46fd13a56ae1963d46ae15f.jpg",
        "thumb_external": null,
        "full_external": null
      },
      "geometry": {
        "type": "Point",
        "coordinates": [
          28.0333,
          44.3333
        ]
      }
    },
    {
      "type": "Feature",
      "properties": {
        "title": "cernavoda (4) 20230702_110544.jpg",
        "taken_at": null,
        "source": "filename",
        "original_page": null,
        "thumb": "thumbs/t-39512c256f291e563bdc488c35f89f4a.jpg",
        "thumb_external": null,
        "full_external": null
      },
      "geometry": {
        "type": "Point",
        "coordinates": [
          28.0333,
          44.3333
        ]
      }
    },
    {
      "type": "Feature",
      "properties": {
        "title": "cernavoda (5) 20230702_110544.jpg",
        "taken_at": null,
        "source": "filename",
        "original_page": null,
        "thumb": "thumbs/t-ec6a56c5b0ce12ef0c62a8ac997b2164.jpg",
        "thumb_external": null,
        "full_external": null
      },
      "geometry": {
        "type": "Point",
        "coordinates": [
          28.0333,
          44.3333
        ]
      }
    },
    {
      "type": "Feature",
      "properties": {
        "title": "cernavoda (6) 20230702_110544.jpg",
        "taken_at": null,
        "source": "filename",
        "original_page": null,
        "thumb": "thumbs/t-cec836ce6fd2a6a2d8fabd70e9779dfb.jpg",
        "thumb_external": null,
        "full_external": null
      },
      "geometry": {
        "type": "Point",
        "coordinates": [
          28.0333,
          44.3333
        ]
      }
    },
    {
      "type": "Feature",
      "properties": {
        "title": "cernavoda (7) 20230702_110544.jpg",
        "taken_at": null,
        "source": "filename",
        "original_page": null,
        "thumb": "thumbs/t-4e09da1670d88ef36580d5e7b662d8e5.jpg",
        "thumb_external": null,
        "full_external": null
      },
      "geometry": {
        "type": "Point",
        "coordinates": [
          28.0333,
          44.3333
        ]
      }
    },
    {
      "type": "Feature",
      "properties": {
        "title": "cernavoda (8) 20230702_110544.jpg",
        "taken_at": null,
        "source": "filename",
        "original_page": null,
        "thumb": "thumbs/t-0569c9b3ae199eda48c3e167babcd4ee.jpg",
        "thumb_external": null,
        "full_external": null
      },
      "geometry": {
        "type": "Point",
        "coordinates": [
          28.0333,
          44.3333
        ]
      }
    },
    {
      "type": "Feature",
      "properties": {
        "title": "cernavoda (10) 20230702_110544.jpg",
        "taken_at": null,
        "source": "filename",
        "original_page": null,
        "thumb": "thumbs/t-1d6ef63b1db80f708ecd79d821631461.jpg",
        "thumb_external": null,
        "full_external": null
      },
      "geometry": {
        "type": "Point",
        "coordinates": [
          28.0333,
          44.3333
        ]
      }
    },
    {
      "type": "Feature",
      "properties": {
        "title": "cernavoda (9) 20230702_110544.jpg",
        "taken_at": null,
        "source": "filename",
        "original_page": null,
        "thumb": "thumbs/t-c85677da357e47af98b5c5269f125b1f.jpg",
        "thumb_external": null,
        "full_external": null
      },
      "geometry": {
        "type": "Point",
        "coordinates": [
          28.0333,
          44.3333
        ]
      }
    },
    {
      "type": "Feature",
      "properties": {
        "title": "cernavoda (11) 20230702_110544.jpg",
        "taken_at": null,
        "source": "filename",
        "original_page": null,
        "thumb": "thumbs/t-cd8113a45d81126f4c1ad91788905a75.jpg",
        "thumb_external": null,
        "full_external": null
      },
      "geometry": {
        "type": "Point",
        "coordinates": [
          28.0333,
          44.3333
        ]
      }
    },
    {
      "type": "Feature",
      "properties": {
        "title": "cernavoda (12) 20230702_110544.jpg",
        "taken_at": null,
        "source": "filename",
        "original_page": null,
        "thumb": "thumbs/t-4f462e4687859a9d87e5c20cd2fb7799.jpg",
        "thumb_external": null,
        "full_external": null
      },
      "geometry": {
        "type": "Point",
        "coordinates": [
          28.0333,
          44.3333
        ]
      }
    },
    {
      "type": "Feature",
      "properties": {
        "title": "cernavoda (13) 20230702_110544.jpg",
        "taken_at": null,
        "source": "filename",
        "original_page": null,
        "thumb": "thumbs/t-73fa1e36957ab9abd6f2ce99cbc8e3a0.jpg",
        "thumb_external": null,
        "full_external": null
      },
      "geometry": {
        "type": "Point",
        "coordinates": [
          28.0333,
          44.3333
        ]
      }
    },
    {
      "type": "Feature",
      "properties": {
        "title": "cernavoda (15) 20230702_110544.jpg",
        "taken_at": null,
        "source": "filename",
        "original_page": null,
        "thumb": "thumbs/t-44c133386d1d6c5e4a8715da2c88a165.jpg",
        "thumb_external": null,
        "full_external": null
      },
      "geometry": {
        "type": "Point",
        "coordinates": [
          28.0333,
          44.3333
        ]
      }
    },
    {
      "type": "Feature",
      "properties": {
        "title": "cernavoda (17) 20230702_110544.jpg",
        "taken_at": null,
        "source": "filename",
        "original_page": null,
        "thumb": "thumbs/t-052404684494ed6d13aad8639bece5d9.jpg",
        "thumb_external": null,
        "full_external": null
      },
      "geometry": {
        "type": "Point",
        "coordinates": [
          28.0333,
          44.3333
        ]
      }
    },
    {
      "type": "Feature",
      "properties": {
        "title": "cernavoda (18) 20230702_110544.jpg",
        "taken_at": null,
        "source": "filename",
        "original_page": null,
        "thumb": "thumbs/t-f696f0bafdba526aa00de730e0622c45.jpg",
        "thumb_external": null,
        "full_external": null
      },
      "geometry": {
        "type": "Point",
        "coordinates": [
          28.0333,
          44.3333
        ]
      }
    },
    {
      "type": "Feature",
      "properties": {
        "title": "cernavoda (14) 20230702_110544.jpg",
        "taken_at": null,
        "source": "filename",
        "original_page": null,
        "thumb": "thumbs/t-4a7ef757b49f254c1edf2e8f15dc30fa.jpg",
        "thumb_external": null,
        "full_external": null
      },
      "geometry": {
        "type": "Point",
        "coordinates": [
          28.0333,
          44.3333
        ]
      }
    },
    {
      "type": "Feature",
      "properties": {
        "title": "cernavoda (16) 20230702_110544.jpg",
        "taken_at": null,
        "source": "filename",
        "original_page": null,
        "thumb": "thumbs/t-daab3152139892ecaa2ed2b6472bb6d5.jpg",
        "thumb_external": null,
        "full_external": null
      },
      "geometry": {
        "type": "Point",
        "coordinates": [
          28.0333,
          44.3333
        ]
      }
    },
    {
      "type": "Feature",
      "properties": {
        "title": "cernavoda (19) 20230702_110544.jpg",
        "taken_at": null,
        "source": "filename",
        "original_page": null,
        "thumb": "thumbs/t-d0d3c71d82c0f89c036f1367158d0cc8.jpg",
        "thumb_external": null,
        "full_external": null
      },
      "geometry": {
        "type": "Point",
        "coordinates": [
          28.0333,
          44.3333
        ]
      }
    },
    {
      "type": "Feature",
      "properties": {
        "title": "cernavoda (20) 20230702_110544.jpg",
        "taken_at": null,
        "source": "filename",
        "original_page": null,
        "thumb": "thumbs/t-5bfcb9e40df0449a9672e5cadd4730d0.jpg",
        "thumb_external": null,
        "full_external": null
      },
      "geometry": {
        "type": "Point",
        "coordinates": [
          28.0333,
          44.3333
        ]
      }
    },
    {
      "type": "Feature",
      "properties": {
        "title": "cernavoda (21) 20230702_110544.jpg",
        "taken_at": null,
        "source": "filename",
        "original_page": null,
        "thumb": "thumbs/t-a7c9ac66add22db524062444bc823dae.jpg",
        "thumb_external": null,
        "full_external": null
      },
      "geometry": {
        "type": "Point",
        "coordinates": [
          28.0333,
          44.3333
        ]
      }
    },
    {
      "type": "Feature",
      "properties": {
        "title": "cernavoda (22) 20230702_110544.jpg",
        "taken_at": null,
        "source": "filename",
        "original_page": null,
        "thumb": "thumbs/t-3156c8817920c57ff7bccb814aa1fbb3.jpg",
        "thumb_external": null,
        "full_external": null
      },
      "geometry": {
        "type": "Point",
        "coordinates": [
          28.0333,
          44.3333
        ]
      }
    },
    {
      "type": "Feature",
      "properties": {
        "title": "seimeni(1).jpg",
        "taken_at": null,
        "source": "filename",
        "original_page": null,
        "thumb": "thumbs/t-9a9e09231ddd50724a9cc9c514dafb8a.jpg",
        "thumb_external": null,
        "full_external": null
      },
      "geometry": {
        "type": "Point",
        "coordinates": [
          28.0713,
          44.3932
        ]
      }
    },
    {
      "type": "Feature",
      "properties": {
        "title": "seimeni(2).jpg",
        "taken_at": null,
        "source": "filename",
        "original_page": null,
        "thumb": "thumbs/t-fda95020eb57d724b3a1f08ef6fb69f5.jpg",
        "thumb_external": null,
        "full_external": null
      },
      "geometry": {
        "type": "Point",
        "coordinates": [
          28.0713,
          44.3932
        ]
      }
    },
    {
      "type": "Feature",
      "properties": {
        "title": "seimeni(4).jpg",
        "taken_at": null,
        "source": "filename",
        "original_page": null,
        "thumb": "thumbs/t-5a89b75591162cde3e6b1b673a070b21.jpg",
        "thumb_external": null,
        "full_external": null
      },
      "geometry": {
        "type": "Point",
        "coordinates": [
          28.0713,
          44.3932
        ]
      }
    },
    {
      "type": "Feature",
      "properties": {
        "title": "seimeni(3).jpg",
        "taken_at": null,
        "source": "filename",
        "original_page": null,
        "thumb": "thumbs/t-b45dba49d7468858d0035a3ea8430955.jpg",
        "thumb_external": null,
        "full_external": null
      },
      "geometry": {
        "type": "Point",
        "coordinates": [
          28.0713,
          44.3932
        ]
      }
    },
    {
      "type": "Feature",
      "properties": {
        "title": "seimeni(5).jpg",
        "taken_at": null,
        "source": "filename",
        "original_page": null,
        "thumb": "thumbs/t-bb2706cbeaea0b666f784c0ee886e645.jpg",
        "thumb_external": null,
        "full_external": null
      },
      "geometry": {
        "type": "Point",
        "coordinates": [
          28.0713,
          44.3932
        ]
      }
    },
    {
      "type": "Feature",
      "properties": {
        "title": "seimeni(6).jpg",
        "taken_at": null,
        "source": "filename",
        "original_page": null,
        "thumb": "thumbs/t-8afe1b697ed1193e9f34865abe6303e1.jpg",
        "thumb_external": null,
        "full_external": null
      },
      "geometry": {
        "type": "Point",
        "coordinates": [
          28.0713,
          44.3932
        ]
      }
    },
    {
      "type": "Feature",
      "properties": {
        "title": "seimeni(7).jpg",
        "taken_at": null,
        "source": "filename",
        "original_page": null,
        "thumb": "thumbs/t-e2cf7fa63ac0f9be61d5287002e46d48.jpg",
        "thumb_external": null,
        "full_external": null
      },
      "geometry": {
        "type": "Point",
        "coordinates": [
          28.0713,
          44.3932
        ]
      }
    },
    {
      "type": "Feature",
      "properties": {
        "title": "seimeni(8).jpg",
        "taken_at": null,
        "source": "filename",
        "original_page": null,
        "thumb": "thumbs/t-126b3b685a95e967648061861710f5c5.jpg",
        "thumb_external": null,
        "full_external": null
      },
      "geometry": {
        "type": "Point",
        "coordinates": [
          28.0713,
          44.3932
        ]
      }
    },
    {
      "type": "Feature",
      "properties": {
        "title": "seimeni(9).jpg",
        "taken_at": null,
        "source": "filename",
        "original_page": null,
        "thumb": "thumbs/t-3e9f79964d10d6fafba3597d8e8c71ea.jpg",
        "thumb_external": null,
        "full_external": null
      },
      "geometry": {
        "type": "Point",
        "coordinates": [
          28.0713,
          44.3932
        ]
      }
    },
    {
      "type": "Feature",
      "properties": {
        "title": "seimeni(10).jpg",
        "taken_at": null,
        "source": "filename",
        "original_page": null,
        "thumb": "thumbs/t-64bb4e8c538bb58f0ecc7148bd6e75db.jpg",
        "thumb_external": null,
        "full_external": null
      },
      "geometry": {
        "type": "Point",
        "coordinates": [
          28.0713,
          44.3932
        ]
      }
    },
    {
      "type": "Feature",
      "properties": {
        "title": "muzeu topalu (1).jpg",
        "taken_at": null,
        "source": "filename",
        "original_page": null,
        "thumb": "thumbs/t-dd0772c770d8cbbe95b5bc0d7f4b3eb2.jpg",
        "thumb_external": null,
        "full_external": null
      },
      "geometry": {
        "type": "Point",
        "coordinates": [
          28.011,
          44.531
        ]
      }
    },
    {
      "type": "Feature",
      "properties": {
        "title": "seimeni(11).jpg",
        "taken_at": null,
        "source": "filename",
        "original_page": null,
        "thumb": "thumbs/t-f5e03dd7a670902503aef4b1f99fd492.jpg",
        "thumb_external": null,
        "full_external": null
      },
      "geometry": {
        "type": "Point",
        "coordinates": [
          28.0713,
          44.3932
        ]
      }
    },
    {
      "type": "Feature",
      "properties": {
        "title": "muzeu topalu (2).jpg",
        "taken_at": null,
        "source": "filename",
        "original_page": null,
        "thumb": "thumbs/t-6d685079e853d78e095bc42805cffac3.jpg",
        "thumb_external": null,
        "full_external": null
      },
      "geometry": {
        "type": "Point",
        "coordinates": [
          28.011,
          44.531
        ]
      }
    },
    {
      "type": "Feature",
      "properties": {
        "title": "muzeu topalu (3).jpg",
        "taken_at": null,
        "source": "filename",
        "original_page": null,
        "thumb": "thumbs/t-2ba500adcc83113fc79809a26100d936.jpg",
        "thumb_external": null,
        "full_external": null
      },
      "geometry": {
        "type": "Point",
        "coordinates": [
          28.011,
          44.531
        ]
      }
    },
    {
      "type": "Feature",
      "properties": {
        "title": "muzeu topalu (4).jpg",
        "taken_at": null,
        "source": "filename",
        "original_page": null,
        "thumb": "thumbs/t-f2de9b487fe0dfe9d33a4555b581a56b.jpg",
        "thumb_external": null,
        "full_external": null
      },
      "geometry": {
        "type": "Point",
        "coordinates": [
          28.011,
          44.531
        ]
      }
    },
    {
      "type": "Feature",
      "properties": {
        "title": "muzeu topalu (5).jpg",
        "taken_at": null,
        "source": "filename",
        "original_page": null,
        "thumb": "thumbs/t-792339fa3afa6f1c79cc6d4821138596.jpg",
        "thumb_external": null,
        "full_external": null
      },
      "geometry": {
        "type": "Point",
        "coordinates": [
          28.011,
          44.531
        ]
      }
    },
    {
      "type": "Feature",
      "properties": {
        "title": "muzeu topalu (6).jpg",
        "taken_at": null,
        "source": "filename",
        "original_page": null,
        "thumb": "thumbs/t-4ccc2c074577afeba5b7f506e4da3502.jpg",
        "thumb_external": null,
        "full_external": null
      },
      "geometry": {
        "type": "Point",
        "coordinates": [
          28.011,
          44.531
        ]
      }
    },
    {
      "type": "Feature",
      "properties": {
        "title": "izvoarele (1).jpg",
        "taken_at": null,
        "source": "filename",
        "original_page": null,
        "thumb": "thumbs/t-09a571b85cb9af25d65f4f2f2e975c13.jpg",
        "thumb_external": null,
        "full_external": null
      },
      "geometry": {
        "type": "Point",
        "coordinates": [
          28.165,
          44.392
        ]
      }
    },
    {
      "type": "Feature",
      "properties": {
        "title": "izvoarele (2).jpg",
        "taken_at": null,
        "source": "filename",
        "original_page": null,
        "thumb": "thumbs/t-7f1a002ef8ef6db1c09b3a23332ce76a.jpg",
        "thumb_external": null,
        "full_external": null
      },
      "geometry": {
        "type": "Point",
        "coordinates": [
          28.165,
          44.392
        ]
      }
    },
    {
      "type": "Feature",
      "properties": {
        "title": "izvoarele (3).jpg",
        "taken_at": null,
        "source": "filename",
        "original_page": null,
        "thumb": "thumbs/t-976119bb151a6f9ff69ea9d0a1365e1e.jpg",
        "thumb_external": null,
        "full_external": null
      },
      "geometry": {
        "type": "Point",
        "coordinates": [
          28.165,
          44.392
        ]
      }
    },
    {
      "type": "Feature",
      "properties": {
        "title": "izvoarele (4).jpg",
        "taken_at": null,
        "source": "filename",
        "original_page": null,
        "thumb": "thumbs/t-c269de9df34a8694c50f5ece5b16d506.jpg",
        "thumb_external": null,
        "full_external": null
      },
      "geometry": {
        "type": "Point",
        "coordinates": [
          28.165,
          44.392
        ]
      }
    },
    {
      "type": "Feature",
      "properties": {
        "title": "izvoarele (5).jpg",
        "taken_at": null,
        "source": "filename",
        "original_page": null,
        "thumb": "thumbs/t-a4e45a66a4df85dd11d488a9caf36b1e.jpg",
        "thumb_external": null,
        "full_external": null
      },
      "geometry": {
        "type": "Point",
        "coordinates": [
          28.165,
          44.392
        ]
      }
    },
    {
      "type": "Feature",
      "properties": {
        "title": "izvoarele (6).jpg",
        "taken_at": null,
        "source": "filename",
        "original_page": null,
        "thumb": "thumbs/t-d4e11aca650e856bf53ad59da01ba0e0.jpg",
        "thumb_external": null,
        "full_external": null
      },
      "geometry": {
        "type": "Point",
        "coordinates": [
          28.165,
          44.392
        ]
      }
    },
    {
      "type": "Feature",
      "properties": {
        "title": "izvoarele (8).jpg",
        "taken_at": null,
        "source": "filename",
        "original_page": null,
        "thumb": "thumbs/t-6263879bac6dc8904c162c22fdab11e8.jpg",
        "thumb_external": null,
        "full_external": null
      },
      "geometry": {
        "type": "Point",
        "coordinates": [
          28.165,
          44.392
        ]
      }
    },
    {
      "type": "Feature",
      "properties": {
        "title": "izvoarele (7).jpg",
        "taken_at": null,
        "source": "filename",
        "original_page": null,
        "thumb": "thumbs/t-0fb28612d3b45d4b3ba2ef1ff233f935.jpg",
        "thumb_external": null,
        "full_external": null
      },
      "geometry": {
        "type": "Point",
        "coordinates": [
          28.165,
          44.392
        ]
      }
    },
    {
      "type": "Feature",
      "properties": {
        "title": "izvoarele (9).jpg",
        "taken_at": null,
        "source": "filename",
        "original_page": null,
        "thumb": "thumbs/t-ffead6674bfe202ab42eb66984c28fac.jpg",
        "thumb_external": null,
        "full_external": null
      },
      "geometry": {
        "type": "Point",
        "coordinates": [
          28.165,
          44.392
        ]
      }
    },
    {
      "type": "Feature",
      "properties": {
        "title": "Rasova (1).jpg",
        "taken_at": null,
        "source": "filename",
        "original_page": null,
        "thumb": "thumbs/t-e80ce14f7645bbe90c224cab81bd6ac6.jpg",
        "thumb_external": null,
        "full_external": null
      },
      "geometry": {
        "type": "Point",
        "coordinates": [
          27.9344,
          44.2458
        ]
      }
    },
    {
      "type": "Feature",
      "properties": {
        "title": "Rasova (2).jpg",
        "taken_at": null,
        "source": "filename",
        "original_page": null,
        "thumb": "thumbs/t-b6545a275d6ceb1972f27e6720888ac5.jpg",
        "thumb_external": null,
        "full_external": null
      },
      "geometry": {
        "type": "Point",
        "coordinates": [
          27.9344,
          44.2458
        ]
      }
    },
    {
      "type": "Feature",
      "properties": {
        "title": "Harsova (1).jpeg",
        "taken_at": null,
        "source": "filename",
        "original_page": null,
        "thumb": "thumbs/t-882310ea62826ffe9b0380d4e5f5679f.jpg",
        "thumb_external": null,
        "full_external": null
      },
      "geometry": {
        "type": "Point",
        "coordinates": [
          27.9533,
          44.6833
        ]
      }
    },
    {
      "type": "Feature",
      "properties": {
        "title": "Harsova (2).jpeg",
        "taken_at": null,
        "source": "filename",
        "original_page": null,
        "thumb": "thumbs/t-b5f904b348053cdd6294e7092c53ba50.jpg",
        "thumb_external": null,
        "full_external": null
      },
      "geometry": {
        "type": "Point",
        "coordinates": [
          27.9533,
          44.6833
        ]
      }
    },
    {
      "type": "Feature",
      "properties": {
        "title": "Harsova (1).jpg",
        "taken_at": null,
        "source": "filename",
        "original_page": null,
        "thumb": "thumbs/t-17dda693a038a52308f9e3df0433402c.jpg",
        "thumb_external": null,
        "full_external": null
      },
      "geometry": {
        "type": "Point",
        "coordinates": [
          27.9533,
          44.6833
        ]
      }
    },
    {
      "type": "Feature",
      "properties": {
        "title": "Harsova (2).jpg",
        "taken_at": null,
        "source": "filename",
        "original_page": null,
        "thumb": "thumbs/t-328c2433a0437039cbbcf7fdecf68df9.jpg",
        "thumb_external": null,
        "full_external": null
      },
      "geometry": {
        "type": "Point",
        "coordinates": [
          27.9533,
          44.6833
        ]
      }
    },
    {
      "type": "Feature",
      "properties": {
        "title": "Harsova (3).jpg",
        "taken_at": null,
        "source": "filename",
        "original_page": null,
        "thumb": "thumbs/t-ae3d2171d17896116730cd0598d83c90.jpg",
        "thumb_external": null,
        "full_external": null
      },
      "geometry": {
        "type": "Point",
        "coordinates": [
          27.9533,
          44.6833
        ]
      }
    },
    {
      "type": "Feature",
      "properties": {
        "title": "Harsova (4).jpg",
        "taken_at": null,
        "source": "filename",
        "original_page": null,
        "thumb": "thumbs/t-bbe455029e5421b82af12dd9f0976710.jpg",
        "thumb_external": null,
        "full_external": null
      },
      "geometry": {
        "type": "Point",
        "coordinates": [
          27.9533,
          44.6833
        ]
      }
    },
    {
      "type": "Feature",
      "properties": {
        "title": "Harsova (5).jpg",
        "taken_at": null,
        "source": "filename",
        "original_page": null,
        "thumb": "thumbs/t-95a47e30fbe97946e2f60e9c1bb7e570.jpg",
        "thumb_external": null,
        "full_external": null
      },
      "geometry": {
        "type": "Point",
        "coordinates": [
          27.9533,
          44.6833
        ]
      }
    },
    {
      "type": "Feature",
      "properties": {
        "title": "Harsova (6).jpg",
        "taken_at": null,
        "source": "filename",
        "original_page": null,
        "thumb": "thumbs/t-341d8bbea02746529ecc86e7f564f70d.jpg",
        "thumb_external": null,
        "full_external": null
      },
      "geometry": {
        "type": "Point",
        "coordinates": [
          27.9533,
          44.6833
        ]
      }
    },
    {
      "type": "Feature",
      "properties": {
        "title": "Harsova (7).jpg",
        "taken_at": null,
        "source": "filename",
        "original_page": null,
        "thumb": "thumbs/t-81756360d49fcf9ab44837153c81bd2e.jpg",
        "thumb_external": null,
        "full_external": null
      },
      "geometry": {
        "type": "Point",
        "coordinates": [
          27.9533,
          44.6833
        ]
      }
    },
    {
      "type": "Feature",
      "properties": {
        "title": "Harsova (8).jpg",
        "taken_at": null,
        "source": "filename",
        "original_page": null,
        "thumb": "thumbs/t-80a971ae7231add8dc741de3013c62bf.jpg",
        "thumb_external": null,
        "full_external": null
      },
      "geometry": {
        "type": "Point",
        "coordinates": [
          27.9533,
          44.6833
        ]
      }
    },
    {
      "type": "Feature",
      "properties": {
        "title": "Harsova (9).jpg",
        "taken_at": null,
        "source": "filename",
        "original_page": null,
        "thumb": "thumbs/t-51d282e353e10430a5cbf9ffaa270c54.jpg",
        "thumb_external": null,
        "full_external": null
      },
      "geometry": {
        "type": "Point",
        "coordinates": [
          27.9533,
          44.6833
        ]
      }
    },
    {
      "type": "Feature",
      "properties": {
        "title": "Harsova (10).jpg",
        "taken_at": null,
        "source": "filename",
        "original_page": null,
        "thumb": "thumbs/t-fa6f27c8f55eb2a33974e367d9c0076a.jpg",
        "thumb_external": null,
        "full_external": null
      },
      "geometry": {
        "type": "Point",
        "coordinates": [
          27.9533,
          44.6833
        ]
      }
    },
    {
      "type": "Feature",
      "properties": {
        "title": "Harsova (11).jpg",
        "taken_at": null,
        "source": "filename",
        "original_page": null,
        "thumb": "thumbs/t-a5b98089c4c47e6cb54c2e0dce83e3e9.jpg",
        "thumb_external": null,
        "full_external": null
      },
      "geometry": {
        "type": "Point",
        "coordinates": [
          27.9533,
          44.6833
        ]
      }
    },
    {
      "type": "Feature",
      "properties": {
        "title": "Harsova (12).jpg",
        "taken_at": null,
        "source": "filename",
        "original_page": null,
        "thumb": "thumbs/t-ec004692c78c6593a61306589bd0555c.jpg",
        "thumb_external": null,
        "full_external": null
      },
      "geometry": {
        "type": "Point",
        "coordinates": [
          27.9533,
          44.6833
        ]
      }
    },
    {
      "type": "Feature",
      "properties": {
        "title": "Harsova (13).jpg",
        "taken_at": null,
        "source": "filename",
        "original_page": null,
        "thumb": "thumbs/t-d0e517c6284c115a1ee99fa77bad83f3.jpg",
        "thumb_external": null,
        "full_external": null
      },
      "geometry": {
        "type": "Point",
        "coordinates": [
          27.9533,
          44.6833
        ]
      }
    },
    {
      "type": "Feature",
      "properties": {
        "title": "Harsova (14).jpg",
        "taken_at": null,
        "source": "filename",
        "original_page": null,
        "thumb": "thumbs/t-46d2e7c85eae8a7c4fa83d779a71b4cd.jpg",
        "thumb_external": null,
        "full_external": null
      },
      "geometry": {
        "type": "Point",
        "coordinates": [
          27.9533,
          44.6833
        ]
      }
    },
    {
      "type": "Feature",
      "properties": {
        "title": "Rasova (3).jpg",
        "taken_at": null,
        "source": "filename",
        "original_page": null,
        "thumb": "thumbs/t-0fa1f944d0930c1ca43de43348cbf7f6.jpg",
        "thumb_external": null,
        "full_external": null
      },
      "geometry": {
        "type": "Point",
        "coordinates": [
          27.9344,
          44.2458
        ]
      }
    }
  ]
}